time(millisecond),datetime(utc),latitude,longitude,height_above_takeoff(feet),height_above_ground_at_drone_location(feet),ground_elevation_at_drone_location(feet),altitude_above_seaLevel(feet),height_sonar(feet),speed(mph),distance(feet),mileage(feet),satellites,gpslevel,voltage(v),max_altitude(feet),max_ascent(feet),max_speed(mph),max_distance(feet), xSpeed(mph), ySpeed(mph), zSpeed(mph), compass_heading(degrees), pitch(degrees), roll(degrees),isPhoto,isVideo,rc_elevator,rc_aileron,rc_throttle,rc_rudder,rc_elevator(percent),rc_aileron(percent),rc_throttle(percent),rc_rudder(percent),gimbal_heading(degrees),gimbal_pitch(degrees),gimbal_roll(degrees),battery_percent,voltageCell1,voltageCell2,voltageCell3,voltageCell4,voltageCell5,voltageCell6,current(A),battery_temperature(f),altitude(feet),ascent(feet),flycStateRaw,flycState,message
0,2023-09-17 18:14:14,0,0,0,Available with any HD 360 subscription,Available with any HD 360 subscription,480.77307017476,0.328084,0,0,0,0,0,0,480.77307017476,0,0,0,0,0,0,272, -2.6, -9.9,0,0,1024,1024,1024,1024,0,0,0,0,274.2,0,0,83,3.955,3.963,3.962,3.961,0,0,0,32,480.77307017476,0,41,Motors_Started,
100,2023-09-17 18:14:14,0,0,0,,,480.77307017476,0.328084,0,0,0,0,0,0,480.77307017476,0,0,0,0,0,0,271.7, -2.2, -9.5,0,0,1024,1024,1024,1024,0,0,0,0,274.1,0,0,83,3.955,3.963,3.962,3.961,0,0,0,32,480.77307017476,0,41,Motors_Started,
200,2023-09-17 18:14:14,0,0,0,,,480.77307017476,0.328084,0,0,0,0,0,0,480.77307017476,0,0,0,0,0,-0.223694,272, -2.1, -7.3,0,0,1024,1024,1024,1024,0,0,0,0,274,0,0,83,3.955,3.963,3.962,3.961,0,0,0,32,480.77307017476,0,41,Motors_Started,
300,2023-09-17 18:14:14,0,0,0,,,480.77307017476,0.328084,0.3131716,0,0,0,0,0,480.77307017476,0,0,0,0.223694,-0.223694,-1.11847,271.1, -2.1, -5.2,0,0,1024,1024,1024,1024,0,0,0,0,273.9,0,0,83,3.955,3.963,3.962,3.961,0,0,0,32,480.77307017476,0,41,Motors_Started,
400,2023-09-17 18:14:14,0,0,0.328084,,,481.10115417476,0.328084,0.6263432,0,0,0,0,0,481.10115417476,0.328084,0,0,0.447388,-0.447388,-1.565858,267.1, -4.8, -5.7,0,0,1024,1024,1024,1024,0,0,0,0,273.7,0,0,83,3.955,3.963,3.962,3.961,0,0,0,32,481.10115417476,0.328084,41,Motors_Started,
500,2023-09-17 18:14:15,0,0,0.656168,,,481.42923817476,0.328084,0.447388,0,0,0,0,0,481.42923817476,0.656168,0,0,0.447388,0,-1.565858,269.6, -5.1, -5,0,0,1024,1024,1024,1024,0,0,0,0,273.5,0,0,83,3.955,3.963,3.962,3.961,0,0,0,32,481.42923817476,0.656168,41,Motors_Started,
600,2023-09-17 18:14:15,0,0,0.656168,,,481.42923817476,0.328084,0.447388,0,0,0,0,0,481.42923817476,0.656168,0,0,0.447388,0,-1.342164,275.9, -6, -7.6,0,0,1024,1024,1024,1024,0,0,0,0,273.4,0,0,83,3.955,3.963,3.962,3.961,0,0,0,32,481.42923817476,0.656168,41,Motors_Started,
700,2023-09-17 18:14:15,0,0,0.984252,,,481.75732217476,0.328084,0.3131716,0,0,0,0,0,481.75732217476,0.984252,0,0,0.223694,0.223694,-0.671082,286.6, -7.6, -13.2,0,0,1024,1024,1024,1024,0,0,0,0,273.8,0,0,83,3.955,3.963,3.962,3.961,0,0,0,32,481.75732217476,0.984252,41,Motors_Started,"Setting new Return-To-Home altitude to 30m (98 ft). Data Recorder File Index is 46. Setting new Maximum Flight Altitude to 30m (98 ft)"
800,2023-09-17 18:14:15,0,0,0.984252,,,481.75732217476,0.328084,0.3131716,0,0,0,0,0,481.75732217476,0.984252,0,0,0.223694,0.223694,-0.223694,295.2, -6.6, -16.7,0,0,1024,1024,1024,1024,0,0,0,0,275.6,0,0,83,3.955,3.963,3.962,3.961,0,0,0,32,481.75732217476,0.984252,41,Motors_Started,
900,2023-09-17 18:14:15,0,0,0.984252,,,481.75732217476,0.328084,0.3131716,0,0,0,0,0,481.75732217476,0.984252,0,0,0.223694,0.223694,0,298.8, -5.8, -15.6,0,0,1024,1024,1024,1024,0,0,0,0,278.4,0,0,83,3.955,3.963,3.962,3.961,0,0,0,32,481.75732217476,0.984252,41,Motors_Started,
1000,2023-09-17 18:14:15,0,0,0.984252,,,481.75732217476,0.328084,0.3131716,0,0,0,0,15.841,481.75732217476,0.984252,0,0,0.223694,0.223694,0,298.7, -6.4, -12.7,0,0,1024,1024,1024,1024,0,0,0,0,281.3,0,0,83,3.955,3.963,3.962,3.961,0,0,0,32,481.75732217476,0.984252,41,Motors_Started,
1100,2023-09-17 18:14:15,0,0,0.984252,,,481.75732217476,0.328084,0.3131716,0,0,0,0,15.841,481.75732217476,0.984252,0,0,0.223694,0.223694,0,298.6, -6.5, -10.5,0,0,1024,1024,1024,1024,0,0,0,0,283.5,0,0,83,3.955,3.963,3.962,3.961,0,0,0,32,481.75732217476,0.984252,41,Motors_Started,
1200,2023-09-17 18:14:15,0,0,0.984252,,,481.75732217476,0.328084,0,0,0,0,0,15.841,481.75732217476,0.984252,0,0,0,0,0,299.1, -6, -10.1,0,0,1024,1024,1024,1024,0,0,0,0,285.3,0,0,83,3.955,3.963,3.962,3.961,0,0,0,32,481.75732217476,0.984252,11,AutoTakeoff,
1300,2023-09-17 18:14:15,0,0,1.312336,,,482.08540617476,0.328084,0,0,0,0,0,15.841,482.08540617476,1.312336,0,0,0,0,0,298.7, -5.6, -9.3,0,0,1024,1024,1024,1024,0,0,0,0,286.7,0,0,83,3.955,3.963,3.962,3.961,0,0,0,32,482.08540617476,1.312336,11,AutoTakeoff,
1400,2023-09-17 18:14:15,0,0,1.312336,,,482.08540617476,0.328084,0,0,0,0,0,15.841,482.08540617476,1.312336,0,0,0,0,0,297.5, -4.6, -7.4,0,0,1024,1024,1024,1024,0,0,0,0,287.8,0,0,83,3.955,3.963,3.962,3.961,0,0,0,32,482.08540617476,1.312336,11,AutoTakeoff,
1500,2023-09-17 18:14:16,0,0,1.312336,,,482.08540617476,0.328084,0,0,0,0,0,15.841,482.08540617476,1.312336,0,0,0,0,0,296.5, -3.4, -6,0,0,1024,1024,1024,1024,0,0,0,0,288.5,0,0,83,3.955,3.963,3.962,3.961,0,0,0,32,482.08540617476,1.312336,11,AutoTakeoff,
1600,2023-09-17 18:14:16,0,0,1.312336,,,482.08540617476,0.328084,0,0,0,0,0,15.841,482.08540617476,1.312336,0,0,0,0,0,297.1, -1.8, -2.9,0,0,1024,1024,1024,1024,0,0,0,0,289.1,0,0,83,3.955,3.963,3.962,3.961,0,0,0,32,482.08540617476,1.312336,11,AutoTakeoff,
1700,2023-09-17 18:14:16,0,0,1.312336,,,482.08540617476,0.328084,0,0,0,0,0,15.841,482.08540617476,1.312336,0,0,0,0,0,297.8, -1, -1.7,0,0,1024,1024,1024,1024,0,0,0,0,289.7,0,0,83,3.955,3.963,3.962,3.961,0,0,0,32,482.08540617476,1.312336,11,AutoTakeoff,
1800,2023-09-17 18:14:16,0,0,1.312336,,,482.08540617476,0.328084,0,0,0,0,0,15.841,482.08540617476,1.312336,0,0,0,0,0,298.5, -1.1, -1.7,0,0,1024,1024,1024,1024,0,0,0,0,290.4,0,0,83,3.955,3.963,3.962,3.961,0,0,0,32,482.08540617476,1.312336,11,AutoTakeoff,
1900,2023-09-17 18:14:16,0,0,1.312336,,,482.08540617476,0.328084,0,0,0,0,0,15.841,482.08540617476,1.312336,0,0,0,0,0,299, -1.2, -1.9,0,0,1024,1024,1024,1024,0,0,0,0,291,0,0,83,3.955,3.963,3.962,3.961,0,0,0,32,482.08540617476,1.312336,11,AutoTakeoff,
2000,2023-09-17 18:14:16,0,0,1.312336,,,482.08540617476,0.328084,0,0,0,0,0,15.725,482.08540617476,1.312336,0,0,0,0,0,299.2, -1.1, -1.1,0,0,1024,1024,1024,1024,0,0,0,0,291.6,0,0,83,3.935,3.939,3.931,3.92,0,0,0,32,482.08540617476,1.312336,11,AutoTakeoff,
2100,2023-09-17 18:14:16,0,0,1.312336,,,482.08540617476,0.328084,0,0,0,0,0,15.725,482.08540617476,1.312336,0,0,0,0,0,299.2, 0, 0,0,0,1024,1024,1024,1024,0,0,0,0,292.2,0,0,83,3.935,3.939,3.931,3.92,0,0,0,32,482.08540617476,1.312336,11,AutoTakeoff,
2200,2023-09-17 18:14:16,0,0,1.312336,,,482.08540617476,0.328084,0,0,0,0,0,15.725,482.08540617476,1.312336,0,0,0,0,0,299.3, 0.3, 0.2,0,0,1024,1024,1024,1024,0,0,0,0,292.6,0,0,83,3.935,3.939,3.931,3.92,0,0,0,32,482.08540617476,1.312336,11,AutoTakeoff,
2300,2023-09-17 18:14:16,0,0,1.312336,,,482.08540617476,0.328084,0,0,0,0,0,15.725,482.08540617476,1.312336,0,0,0,0,0,299.3, 0.5, 0.1,0,0,1024,1024,1024,1024,0,0,0,0,293.1,0,0,83,3.935,3.939,3.931,3.92,0,0,0,32,482.08540617476,1.312336,11,AutoTakeoff,
2400,2023-09-17 18:14:16,0,0,1.312336,,,482.08540617476,0.328084,0,0,0,0,0,15.725,482.08540617476,1.312336,0,0,0,0,-0.223694,299.2, 0.6, 0,0,0,1024,1024,1024,1024,0,0,0,0,293.4,0,0,83,3.935,3.939,3.931,3.92,0,0,0,32,482.08540617476,1.312336,11,AutoTakeoff,
2500,2023-09-17 18:14:16,0,0,1.312336,,,482.08540617476,0.656168,0,0,0,0,0,15.725,482.08540617476,1.312336,0,0,0,0,-0.447388,299.1, 0.6, 0,0,0,1024,1024,1024,1024,0,0,0,0,293.7,0,0,83,3.935,3.939,3.931,3.92,0,0,0,32,482.08540617476,1.312336,11,AutoTakeoff,
2600,2023-09-17 18:14:17,0,0,1.64042,,,482.41349017476,0.656168,0,0,0,0,0,15.725,482.41349017476,1.64042,0,0,0,0,-0.671082,298.9, 0.8, 0.3,0,0,1024,1024,1024,1024,0,0,0,0,294,0,0,83,3.935,3.939,3.931,3.92,0,0,0,32,482.41349017476,1.64042,11,AutoTakeoff,
2700,2023-09-17 18:14:17,0,0,1.64042,,,482.41349017476,0.984252,0,0,0,0,0,15.725,482.41349017476,1.64042,0,0,0,0,-0.894776,298.9, 0.7, 0.5,0,0,1024,1024,1024,1024,0,0,0,0,294.2,0,0,83,3.935,3.939,3.931,3.92,0,0,0,32,482.41349017476,1.64042,11,AutoTakeoff,
2800,2023-09-17 18:14:17,0,0,1.968504,,,482.74157417476,4.593176,0,0,0,0,0,15.725,482.74157417476,1.968504,0,0,0,0,-0.894776,298.8, 0.7, 0.6,0,0,1024,1024,1024,1024,0,0,0,0,294.4,0,0,83,3.935,3.939,3.931,3.92,0,0,0,32,482.74157417476,1.968504,11,AutoTakeoff,
2900,2023-09-17 18:14:17,0,0,1.968504,,,482.74157417476,4.92126,0,0,0,0,0,15.725,482.74157417476,1.968504,0,0,0,0,-0.894776,298.8, 0.6, 0.6,0,0,1024,1024,1024,1024,0,0,0,0,294.4,0,0,83,3.935,3.939,3.931,3.92,0,0,0,32,482.74157417476,1.968504,6,P-GPS,
3000,2023-09-17 18:14:17,0,0,1.968504,,,482.74157417476,4.92126,0,0,0,0,0,15.725,482.74157417476,1.968504,0,0,0,0,-0.671082,299, 0.6, 0.5,0,0,1024,1024,1024,1024,0,0,0,0,294.4,0,0,83,3.935,3.939,3.931,3.92,0,0,0,32,482.74157417476,1.968504,6,P-GPS,
3100,2023-09-17 18:14:17,0,0,2.296588,,,483.06965817476,4.92126,0,0,0,0,0,15.381,483.06965817476,2.296588,0,0,0,0,-0.447388,299, 0.8, 0.4,0,0,1024,1024,1024,1024,0,0,0,0,294.4,0,0,83,3.824,3.837,3.842,3.878,0,0,0,32,483.06965817476,2.296588,6,P-GPS,
3200,2023-09-17 18:14:17,0,0,2.296588,,,483.06965817476,5.249344,0,0,0,0,0,15.381,483.06965817476,2.296588,0,0,0,0,-0.223694,299, 0.8, 0.4,0,0,1024,1024,1024,1024,0,0,0,0,294.4,0,0,83,3.824,3.837,3.842,3.878,0,0,0,32,483.06965817476,2.296588,6,P-GPS,
3300,2023-09-17 18:14:17,0,0,2.296588,,,483.06965817476,5.249344,0,0,0,0,0,15.381,483.06965817476,2.296588,0,0,0,0,0,299, 0.6, 0.2,0,0,1024,1024,1024,1024,0,0,0,0,294.4,0,0,83,3.824,3.837,3.842,3.878,0,0,0,32,483.06965817476,2.296588,6,P-GPS,
3400,2023-09-17 18:14:17,0,0,2.296588,,,483.06965817476,5.249344,0,0,0,0,0,15.381,483.06965817476,2.296588,0,0,0,0,0,299, 0.6, 0.3,0,0,1024,1024,1024,1024,0,0,0,0,294.4,0,0,83,3.824,3.837,3.842,3.878,0,0,0,32,483.06965817476,2.296588,6,P-GPS,
3500,2023-09-17 18:14:18,0,0,2.296588,,,483.06965817476,5.249344,0,0,0,0,0,15.381,483.06965817476,2.296588,0,0,0,0,0,298.9, 0.7, 0.3,0,0,1024,1024,1024,1024,0,0,0,0,294.4,0,0,83,3.824,3.837,3.842,3.878,0,0,0,32,483.06965817476,2.296588,6,P-GPS,
3600,2023-09-17 18:14:18,0,0,2.296588,,,483.06965817476,5.249344,0,0,0,0,0,15.381,483.06965817476,2.296588,0,0,0,0,0,298.9, 0.6, 0.2,0,0,1024,1024,1024,1024,0,0,0,0,294.4,0,0,83,3.824,3.837,3.842,3.878,0,0,0,32,483.06965817476,2.296588,6,P-GPS,
3700,2023-09-17 18:14:18,0,0,2.296588,,,483.06965817476,5.249344,0,0,0,0,0,15.381,483.06965817476,2.296588,0,0,0,0,0,298.9, 0.6, 0.1,0,0,1361,1024,1024,1024,51,0,0,0,294.4,0,0,83,3.824,3.837,3.842,3.878,0,0,0,32,483.06965817476,2.296588,6,P-GPS,
3800,2023-09-17 18:14:18,0,0,2.296588,,,483.06965817476,5.249344,0,0,0,0,0,15.381,483.06965817476,2.296588,0,0,0,0,0,298.9, 0.7, 0.1,0,0,1684,939,1024,1024,100,-13,0,0,294.4,0,0,83,3.824,3.837,3.842,3.878,0,0,0,32,483.06965817476,2.296588,6,P-GPS,
3900,2023-09-17 18:14:18,0,0,2.296588,,,483.06965817476,5.249344,0,0,0,0,0,15.381,483.06965817476,2.296588,0,0,0,0,0,299, -3.6, 0.3,0,0,1684,893,1024,1024,100,-20,0,0,294.4,0,0,83,3.824,3.837,3.842,3.878,0,0,0,32,483.06965817476,2.296588,6,P-GPS,
4000,2023-09-17 18:14:18,0,0,2.296588,,,483.06965817476,5.249344,0.223694,0,0,0,0,15.381,483.06965817476,2.296588,0,0,0,-0.223694,0,298.9, -8.2, 0.2,0,0,1684,893,1024,1024,100,-20,0,0,294.4,0,0,83,3.824,3.837,3.842,3.878,0,0,0,32,483.06965817476,2.296588,6,P-GPS,
4100,2023-09-17 18:14:18,0,0,2.296588,,,483.06965817476,5.249344,0.4921268,0,0,0,0,15.381,483.06965817476,2.296588,0,0,0.223694,-0.447388,0,298.9, -10.7, -0.1,0,0,1684,893,1024,1024,100,-20,0,0,294.4,0,0,83,3.824,3.837,3.842,3.878,0,0,0,32,483.06965817476,2.296588,6,P-GPS,
4200,2023-09-17 18:14:18,0,0,2.296588,,,483.06965817476,5.249344,1.006623,0,0,0,0,15.381,483.06965817476,2.296588,0,0,0.447388,-0.894776,0,298.9, -11.7, -0.2,0,0,1684,892,1024,1024,100,-20,0,0,294.4,0,0,83,3.824,3.837,3.842,3.878,0,0,0,32,483.06965817476,2.296588,6,P-GPS,
4300,2023-09-17 18:14:18,0,0,2.296588,,,483.06965817476,5.249344,1.4987498,0,0,0,0,15.381,483.06965817476,2.296588,0,0,0.671082,-1.342164,0,298.9, -11.8, -0.3,0,0,1684,893,1024,1024,100,-20,0,0,294.4,0,0,83,3.824,3.837,3.842,3.878,0,0,0,32,483.06965817476,2.296588,6,P-GPS,
4400,2023-09-17 18:14:18,0,0,2.296588,,,483.06965817476,5.249344,1.8119214,0,0,0,0,15.381,483.06965817476,2.296588,0,0,0.894776,-1.565858,0,299, -11.7, -0.2,0,0,1684,874,1024,1024,100,-23,0,0,294.4,0,0,83,3.824,3.837,3.842,3.878,0,0,0,32,483.06965817476,2.296588,6,P-GPS,
4500,2023-09-17 18:14:19,0,0,2.296588,,,483.06965817476,5.249344,2.3040482,0,0,0,0,15.381,483.06965817476,2.296588,0,0,1.11847,-2.013246,0,299, -11.4, -0.2,0,0,1684,855,1024,1024,100,-26,0,0,294.4,0,0,83,3.824,3.837,3.842,3.878,0,0,0,32,483.06965817476,2.296588,6,P-GPS,
4600,2023-09-17 18:14:19,0,0,2.296588,,,483.06965817476,5.249344,2.796175,0,0,0,0,15.381,483.06965817476,2.296588,0,0,1.342164,-2.460634,0,298.9, -11.5, -0.1,0,0,1684,819,1024,1024,100,-31,0,0,294.4,0,0,83,3.824,3.837,3.842,3.878,0,0,0,32,483.06965817476,2.296588,6,P-GPS,
4700,2023-09-17 18:14:19,0,0,2.296588,,,483.06965817476,5.249344,3.3106712,0,0,0,0,15.381,483.06965817476,2.296588,0,0,1.565858,-2.908022,0,299.1, -11.3, -0.2,0,0,1684,819,1024,1024,100,-31,0,0,294.4,0,0,83,3.824,3.837,3.842,3.878,0,0,0,32,483.06965817476,2.296588,6,P-GPS,
4800,2023-09-17 18:14:19,0,0,2.296588,,,483.06965817476,5.249344,3.802798,0,0,0,0,15.381,483.06965817476,2.296588,0,0,1.789552,-3.35541,0,299.2, -10.9, 0,0,0,1684,825,1024,1024,100,-30,0,0,294.4,0,0,83,3.824,3.837,3.842,3.878,0,0,0,32,483.06965817476,2.296588,6,P-GPS,
4900,2023-09-17 18:14:19,0,0,2.296588,,,483.06965817476,5.249344,4.0041226,0,0,0,0,15.381,483.06965817476,2.296588,0,0,1.789552,-3.579104,0,299.1, -10.6, -0.5,0,0,1684,825,1024,1024,100,-30,0,0,294.4,0,0,83,3.824,3.837,3.842,3.878,0,0,0,32,483.06965817476,2.296588,6,P-GPS,
5000,2023-09-17 18:14:19,0,0,2.296588,,,483.06965817476,5.249344,4.4962494,0,0,0,0,15.343,483.06965817476,2.296588,0,0,2.013246,-4.026492,0,299.2, -10.7, -1.1,0,0,1684,825,1024,1024,100,-30,0,0,294.4,0,0,83,3.828,3.84,3.839,3.836,0,0,0,32,483.06965817476,2.296588,6,P-GPS,
5100,2023-09-17 18:14:19,0,0,2.296588,,,483.06965817476,4.92126,4.809421,0,0,0,0,15.343,483.06965817476,2.296588,0,0,2.23694,-4.250186,0,299.2, -10.6, -1.4,0,0,1684,823,1024,1024,100,-30,0,0,294.4,0,0,83,3.828,3.84,3.839,3.836,0,0,0,32,483.06965817476,2.296588,6,P-GPS,
5200,2023-09-17 18:14:19,0,0,2.296588,,,483.06965817476,4.92126,5.3015478,0,0,0,0,15.343,483.06965817476,2.296588,0,0,2.460634,-4.697574,0,299.2, -10.6, -1.5,0,0,1684,785,1024,1024,100,-36,0,0,294.4,0,0,83,3.828,3.84,3.839,3.836,0,0,0,32,483.06965817476,2.296588,6,P-GPS,
5300,2023-09-17 18:14:19,0,0,2.296588,,,483.06965817476,4.92126,5.5028724,0,0,0,0,15.343,483.06965817476,2.296588,0,0,2.460634,-4.921268,0,299, -10.8, -2,0,0,1684,775,1024,1024,100,-38,0,0,294.4,0,0,83,3.828,3.84,3.839,3.836,0,0,0,32,483.06965817476,2.296588,6,P-GPS,
5400,2023-09-17 18:14:19,0,0,2.296588,,,483.06965817476,4.92126,5.9949992,0,0,0,0,15.343,483.06965817476,2.296588,0,0,2.684328,-5.368656,0,299, -10.5, -2.9,0,0,1684,787,1024,1290,100,-36,0,40,294.4,0,0,83,3.828,3.84,3.839,3.836,0,0,0,32,483.06965817476,2.296588,6,P-GPS,
5500,2023-09-17 18:14:20,0,0,2.296588,,,483.06965817476,4.92126,6.1963238,0,0,0,0,15.343,483.06965817476,2.296588,0,0,2.684328,-5.59235,0,299.1, -10.7, -2.8,0,0,1684,793,1024,1672,100,-35,0,98,294.9,0,0,83,3.828,3.84,3.839,3.836,0,0,0,32,483.06965817476,2.296588,6,P-GPS,
5600,2023-09-17 18:14:20,0,0,2.296588,,,483.06965817476,4.92126,6.1963238,0,0,0,0,15.343,483.06965817476,2.296588,0,0,2.684328,-6.039738,0,300.2, -10.8, -2,0,0,1684,794,1024,1684,100,-35,0,100,298.6,0,0,83,3.828,3.84,3.839,3.836,0,0,0,32,483.06965817476,2.296588,6,P-GPS,
5700,2023-09-17 18:14:20,0,0,2.296588,,,483.06965817476,5.249344,6.9121446,0,0,0,0,15.343,483.06965817476,2.296588,0,0,2.908022,-6.263432,0,304.3, -11, -2.4,0,0,1684,785,1024,1684,100,-36,0,100,304.4,0,0,83,3.828,3.84,3.839,3.836,0,0,0,32,483.06965817476,2.296588,6,P-GPS,
5800,2023-09-17 18:14:20,0,0,2.296588,,,483.06965817476,5.577428,7.4042714,0,0,0,0,15.343,483.06965817476,2.296588,0,0,3.131716,-6.71082,0,309.4, -10.8, -2.9,0,0,1684,783,1024,1684,100,-37,0,100,310.4,0,0,83,3.828,3.84,3.839,3.836,0,0,0,32,483.06965817476,2.296588,6,P-GPS,
5900,2023-09-17 18:14:20,0,0,2.296588,,,483.06965817476,5.577428,7.4042714,0,0,0,0,15.343,483.06965817476,2.296588,0,0,3.131716,-6.934514,0,315, -10.5, -3,0,0,1684,782,1024,1684,100,-37,0,100,316.4,0,0,83,3.828,3.84,3.839,3.836,0,0,0,32,483.06965817476,2.296588,6,P-GPS,
6000,2023-09-17 18:14:20,0,0,2.296588,,,483.06965817476,5.577428,7.8963982,0,0,0,0,15.343,483.06965817476,2.296588,0,0,3.35541,-7.158208,0,320.9, -10.7, -2.6,0,0,1684,772,1024,1472,100,-38,0,68,322.1,0,0,83,3.828,3.84,3.839,3.836,0,0,0,32,483.06965817476,2.296588,6,P-GPS,
6100,2023-09-17 18:14:20,0,0,2.296588,,,483.06965817476,5.905512,8.2095698,0,0,0,0,15.285,483.06965817476,2.296588,0,0,3.579104,-7.381902,0,325.9, -11.1, -1.9,0,0,1684,766,1024,1639,100,-39,0,93,325.5,0,0,83,3.813,3.825,3.823,3.824,0,0,0,32,483.06965817476,2.296588,6,P-GPS,
6200,2023-09-17 18:14:20,0,0,2.296588,,,483.06965817476,5.905512,8.612219,0,0,0,0,15.285,483.06965817476,2.296588,0,0,4.026492,-7.605596,0,329.7, -11.3, -1.5,0,0,1684,745,1024,1087,100,-42,0,10,329.5,0,0,83,3.813,3.825,3.823,3.824,0,0,0,32,483.06965817476,2.296588,6,P-GPS,
6300,2023-09-17 18:14:20,0,0,2.296588,,,483.06965817476,5.905512,8.7016966,0,0,0,0,15.285,483.06965817476,2.296588,0,0,4.250186,-7.605596,0,334, -11.2, -1.8,0,0,1684,743,1024,1024,100,-43,0,0,332,0,0,83,3.813,3.825,3.823,3.824,0,0,0,32,483.06965817476,2.296588,6,P-GPS,
6400,2023-09-17 18:14:20,0,0,2.296588,,,483.06965817476,5.905512,9.0148682,0,0,0,0,15.285,483.06965817476,2.296588,0,0,4.47388,-7.82929,0,335.5, -11.3, -1.1,0,0,1684,735,1024,1024,100,-44,0,0,332.1,0,0,83,3.813,3.825,3.823,3.824,0,0,0,32,483.06965817476,2.296588,6,P-GPS,
6500,2023-09-17 18:14:21,0,0,2.296588,,,483.06965817476,5.905512,9.2385622,0,0,0,0,15.285,483.06965817476,2.296588,0,0,4.921268,-7.82929,0,336, -10.9, -1.2,0,0,1684,738,1024,1024,100,-43,0,0,332.1,0,0,83,3.813,3.825,3.823,3.824,0,0,0,32,483.06965817476,2.296588,6,P-GPS,
6600,2023-09-17 18:14:21,0,0,2.296588,,,483.06965817476,6.233596,9.3727786,0,0,0,0,15.285,483.06965817476,2.296588,0,0,5.144962,-7.82929,0,336.2, -10.5, -1.2,0,0,1684,738,1024,1024,100,-43,0,0,332.1,0,0,83,3.813,3.825,3.823,3.824,0,0,0,32,483.06965817476,2.296588,6,P-GPS,
6700,2023-09-17 18:14:21,0,0,2.296588,,,483.06965817476,6.233596,9.7977972,0,0,0,0,15.285,483.06965817476,2.296588,0,0,5.59235,-8.052984,0,336.3, -10.4, -1,0,0,1657,726,1024,1024,96,-45,0,0,332.1,0,0,83,3.813,3.825,3.823,3.824,0,0,0,32,483.06965817476,2.296588,6,P-GPS,
6800,2023-09-17 18:14:21,0,0,2.296588,,,483.06965817476,6.233596,9.9320136,0,0,0,0,15.285,483.06965817476,2.296588,0,0,5.816044,-8.052984,0,336.3, -10.6, -0.8,0,0,1565,743,1024,976,82,-43,0,-7,332.1,0,0,83,3.813,3.825,3.823,3.824,0,0,0,32,483.06965817476,2.296588,6,P-GPS,
6900,2023-09-17 18:14:21,0,0,2.296588,,,483.06965817476,6.233596,10.06623,0,0,0,0,15.285,483.06965817476,2.296588,0,0,6.039738,-8.052984,0,336.4, -10.3, -0.6,0,0,1556,804,1024,563,81,-33,0,-70,332.1,0,0,83,3.813,3.825,3.823,3.824,0,0,0,32,483.06965817476,2.296588,6,P-GPS,
7000,2023-09-17 18:14:21,0,0,2.296588,,,483.06965817476,6.56168,10.3346628,0,0,0,0,15.285,483.06965817476,2.296588,0,0,6.487126,-8.052984,0,336.3, -9.9, -0.6,0,0,1570,807,1024,364,83,-33,0,-100,330.6,0,0,83,3.813,3.825,3.823,3.824,0,0,0,32,483.06965817476,2.296588,6,P-GPS,
7100,2023-09-17 18:14:21,0,0,2.296588,,,483.06965817476,6.56168,10.6478344,0,0,0,0,15.305,483.06965817476,2.296588,0,0,6.71082,-8.276678,0,333.8, -9.4, 0.3,0,0,1585,791,1024,365,85,-35,0,-100,325.4,0,0,83,3.817,3.83,3.829,3.829,0,0,0,32,483.06965817476,2.296588,6,P-GPS,
7200,2023-09-17 18:14:21,0,0,2.296588,,,483.06965817476,6.889764,10.8044202,0,0,0,0,15.305,483.06965817476,2.296588,0,0,6.934514,-8.276678,0,329, -9, 0.9,0,0,1599,786,1024,365,87,-36,0,-100,319.5,0,0,83,3.817,3.83,3.829,3.829,0,0,0,32,483.06965817476,2.296588,6,P-GPS,
7300,2023-09-17 18:14:21,0,0,2.296588,,,483.06965817476,6.889764,10.9386366,0,0,0,0,15.305,483.06965817476,2.296588,0,0,7.158208,-8.276678,0,323.6, -8.2, 0.3,0,0,1610,783,1024,365,89,-37,0,-100,313.5,0,0,83,3.817,3.83,3.829,3.829,0,0,0,32,483.06965817476,2.296588,6,P-GPS,
7400,2023-09-17 18:14:21,0,0,2.296588,,,483.06965817476,7.217848,11.0952224,0,0,0,0,15.305,483.06965817476,2.296588,0,0,7.381902,-8.276678,0,317.9, -7.6, -0.3,0,0,1620,783,1024,365,90,-37,0,-100,307.5,0,0,83,3.817,3.83,3.829,3.829,0,0,0,32,483.06965817476,2.296588,6,P-GPS,
7500,2023-09-17 18:14:22,0,0,2.296588,,,483.06965817476,7.217848,11.2294388,0,0,0,0,15.305,483.06965817476,2.296588,0,0,7.605596,-8.276678,0,312.1, -7.5, -1.3,0,0,1632,782,1024,365,92,-37,0,-100,301.5,0,0,83,3.817,3.83,3.829,3.829,0,0,0,32,483.06965817476,2.296588,6,P-GPS,
7600,2023-09-17 18:14:22,0,0,2.296588,,,483.06965817476,7.217848,11.408394,0,0,0,0,15.305,483.06965817476,2.296588,0,0,7.605596,-8.500372,0,306.2, -8, -2,0,0,1633,780,1024,365,92,-37,0,-100,295.6,0,0,83,3.817,3.83,3.829,3.829,0,0,0,32,483.06965817476,2.296588,6,P-GPS,
7700,2023-09-17 18:14:22,0,0,2.296588,,,483.06965817476,7.217848,11.7215656,0,0,0,0,15.305,483.06965817476,2.296588,0,0,7.82929,-8.724066,0,300.5, -8.8, -2.6,0,0,1634,777,1024,364,92,-37,0,-100,289.6,0,0,83,3.817,3.83,3.829,3.829,0,0,0,32,483.06965817476,2.296588,6,P-GPS,
7800,2023-09-17 18:14:22,0,0,2.296588,,,483.06965817476,7.217848,11.9005208,0,0,0,0,15.305,483.06965817476,2.296588,0,0,7.82929,-8.94776,0,294.6, -9.7, -3.6,0,0,1632,759,1024,364,92,-40,0,-100,283.6,0,0,83,3.817,3.83,3.829,3.829,0,0,0,32,483.06965817476,2.296588,6,P-GPS,
7900,2023-09-17 18:14:22,0,0,2.296588,,,483.06965817476,7.217848,12.0571066,0,0,0,0,15.305,483.06965817476,2.296588,0,0,7.82929,-9.171454,0,288.7, -10.4, -4.1,0,0,1632,744,1024,365,92,-42,0,-100,277.6,0,0,83,3.817,3.83,3.829,3.829,0,0,0,32,483.06965817476,2.296588,6,P-GPS,
8000,2023-09-17 18:14:22,0,0,2.296588,,,483.06965817476,7.217848,12.079476,0,0,0,0,15.305,483.06965817476,2.296588,0,0,7.605596,-9.395148,0,282.8, -10.2, -4.8,0,0,1618,635,1024,474,90,-59,0,-83,271.6,0,0,83,3.817,3.83,3.829,3.829,0,0,0,32,483.06965817476,2.296588,6,P-GPS,
8100,2023-09-17 18:14:22,0,0,2.296588,,,483.06965817476,7.217848,12.2584312,0,0,0,0,15.274,483.06965817476,2.296588,0,0,7.605596,-9.618842,0,277, -9.9, -6.1,0,0,1489,364,1024,648,70,-100,0,-57,266.8,0,0,83,3.815,3.82,3.821,3.818,0,0,0,32,483.06965817476,2.296588,6,P-GPS,
8200,2023-09-17 18:14:22,0,0,2.296588,,,483.06965817476,7.217848,12.30317,0,0,0,0,15.274,483.06965817476,2.296588,0,0,7.381902,-9.842536,0,273, -9.7, -9.1,0,0,1475,364,1024,686,68,-100,0,-51,264.4,0,0,83,3.815,3.82,3.821,3.818,0,0,0,32,483.06965817476,2.296588,6,P-GPS,
8300,2023-09-17 18:14:22,0,0,2.296588,,,483.06965817476,7.217848,12.1018454,0,0,0,0,15.274,483.06965817476,2.296588,0,0,6.71082,-10.06623,0,271.1, -9.5, -18.4,0,0,1476,364,1024,673,68,-100,0,-53,263.1,0,0,83,3.815,3.82,3.821,3.818,0,0,0,32,483.06965817476,2.296588,6,P-GPS,
8400,2023-09-17 18:14:22,0,0,2.296588,,,483.06965817476,6.889764,11.9228902,0,0,0,0,15.274,483.06965817476,2.296588,0,0,6.039738,-10.289924,0,269.4, -8.3, -22.8,0,0,1476,364,1024,638,68,-100,0,-58,261.8,0,0,83,3.815,3.82,3.821,3.818,0,0,0,32,483.06965817476,2.296588,6,P-GPS,
8500,2023-09-17 18:14:22,0,0,2.296588,,,483.06965817476,6.56168,11.9228902,0,0,0,0,15.274,483.06965817476,2.296588,0,0,4.921268,-10.513618,0,267.6, -7.3, -23.5,0,0,1476,364,1024,639,68,-100,0,-58,260.2,0,0,83,3.815,3.82,3.821,3.818,0,0,0,32,483.06965817476,2.296588,6,P-GPS,
8600,2023-09-17 18:14:23,0,0,2.296588,,,483.06965817476,6.56168,11.1847,0,0,0,0,15.274,483.06965817476,2.296588,0,0,3.802798,-10.513618,0,266, -7, -23.6,0,0,1476,364,1024,635,68,-100,0,-59,258.5,0,0,83,3.815,3.82,3.821,3.818,0,0,0,32,483.06965817476,2.296588,6,P-GPS,
8700,2023-09-17 18:14:23,0,0,2.296588,,,483.06965817476,6.56168,10.9162672,0,0,0,0,15.274,483.06965817476,2.296588,0,0,2.908022,-10.513618,0,264.2, -7, -23.5,0,0,1478,364,1024,439,69,-100,0,-89,256.8,0,0,83,3.815,3.82,3.821,3.818,0,0,0,32,483.06965817476,2.296588,6,P-GPS,
8800,2023-09-17 18:14:23,0,0,2.296588,,,483.06965817476,6.56168,10.7149426,0,0,0,0,15.274,483.06965817476,2.296588,0,0,2.013246,-10.513618,0,262.3, -7.1, -23.5,0,0,1486,364,1024,367,70,-100,0,-100,253.4,0,0,83,3.815,3.82,3.821,3.818,0,0,0,32,483.06965817476,2.296588,6,P-GPS,
8900,2023-09-17 18:14:23,0,0,2.296588,,,483.06965817476,6.56168,10.5583568,0,0,0,0,15.274,483.06965817476,2.296588,0,0,0.894776,-10.513618,0,258.7, -8, -22.9,0,0,1487,364,1024,442,70,-100,0,-88,247.8,0,0,83,3.815,3.82,3.821,3.818,0,0,0,32,483.06965817476,2.296588,6,P-GPS,
9000,2023-09-17 18:14:23,0,0,2.296588,,,483.06965817476,6.56168,10.289924,0,0,0,0,15.274,483.06965817476,2.296588,0,0,0,-10.289924,0,253.8, -9.5, -22.7,0,0,1484,364,1024,492,70,-100,0,-81,242.6,0,0,83,3.815,3.82,3.821,3.818,0,0,0,32,483.06965817476,2.296588,6,P-GPS,
9100,2023-09-17 18:14:23,0,0,2.296588,,,483.06965817476,6.233596,10.3122934,0,0,0,0,15.196,483.06965817476,2.296588,0,0,-0.671082,-10.289924,0,249.2, -10.2, -22.7,0,0,1484,364,1024,505,70,-100,0,-79,238.8,0,0,83,3.788,3.799,3.803,3.806,0,0,0,32,483.06965817476,2.296588,6,P-GPS,
9200,2023-09-17 18:14:23,0,0,2.296588,,,483.06965817476,6.56168,9.9767524,0,0,0,0,15.196,483.06965817476,2.296588,0,0,-1.565858,-9.842536,0,245.1, -10.1, -22.6,0,0,1484,364,1024,550,70,-100,0,-72,235.3,0,0,83,3.788,3.799,3.803,3.806,0,0,0,32,483.06965817476,2.296588,6,P-GPS,
9300,2023-09-17 18:14:23,0,0,2.296588,,,483.06965817476,6.56168,9.9767524,0,0,0,0,15.196,483.06965817476,2.296588,0,0,-2.684328,-9.618842,0,241.9, -10.7, -22.7,0,0,1484,364,1024,573,70,-100,0,-68,232.3,0,0,83,3.788,3.799,3.803,3.806,0,0,0,32,483.06965817476,2.296588,6,P-GPS,
9400,2023-09-17 18:14:23,0,0,2.296588,,,483.06965817476,6.56168,9.842536,0,0,0,0,15.196,483.06965817476,2.296588,0,0,-3.579104,-9.171454,0,239, -10.8, -22.4,0,0,1484,364,1024,575,70,-100,0,-68,229.7,0,0,83,3.788,3.799,3.803,3.806,0,0,0,32,483.06965817476,2.296588,6,P-GPS,
9500,2023-09-17 18:14:24,0,0,2.296588,,,483.06965817476,6.233596,9.7977972,0,0,0,0,15.196,483.06965817476,2.296588,0,0,-4.47388,-8.724066,0,236.4, -10.9, -22.2,0,0,1484,364,1024,576,70,-100,0,-68,227.3,0,0,83,3.788,3.799,3.803,3.806,0,0,0,32,483.06965817476,2.296588,6,P-GPS,
9600,2023-09-17 18:14:24,0,0,2.296588,,,483.06965817476,6.56168,10.0438606,0,0,0,0,15.196,483.06965817476,2.296588,0,0,-5.368656,-8.500372,0,233.8, -10.7, -22.4,0,0,1484,364,1024,577,70,-100,0,-68,224.9,0,0,83,3.788,3.799,3.803,3.806,0,0,0,32,483.06965817476,2.296588,6,P-GPS,
9700,2023-09-17 18:14:24,0,0,2.296588,,,483.06965817476,6.56168,10.2004464,0,0,0,0,15.196,483.06965817476,2.296588,0,0,-6.263432,-8.052984,0,231.3, -10.3, -22.6,0,0,1484,364,1024,586,70,-100,0,-66,222.6,0,0,83,3.788,3.799,3.803,3.806,0,0,0,32,483.06965817476,2.296588,6,P-GPS,
9800,2023-09-17 18:14:24,0,0,2.296588,,,483.06965817476,6.233596,10.289924,0,0,0,0,15.196,483.06965817476,2.296588,0,0,-7.158208,-7.381902,0,228.7, -9.7, -22.1,0,0,1429,543,1024,543,61,-73,0,-73,220.3,0,0,83,3.788,3.799,3.803,3.806,0,0,0,32,483.06965817476,2.296588,6,P-GPS,
9900,2023-09-17 18:14:24,0,0,2.296588,,,483.06965817476,6.233596,10.4688792,0,0,0,0,15.196,483.06965817476,2.296588,0,0,-7.82929,-6.934514,0,225.9, -8, -20.2,0,0,1292,969,1024,405,41,-8,0,-94,217.7,0,0,83,3.788,3.799,3.803,3.806,0,0,0,32,483.06965817476,2.296588,6,P-GPS,
10000,2023-09-17 18:14:24,0,0,2.296588,,,483.06965817476,6.233596,10.6925732,0,0,0,0,15.196,483.06965817476,2.296588,0,0,-8.500372,-6.487126,0,222.5, -7.5, -17.1,0,0,1024,1024,1024,364,0,0,0,-100,213.3,0,0,83,3.788,3.799,3.803,3.806,0,0,0,32,483.06965817476,2.296588,6,P-GPS,
10100,2023-09-17 18:14:24,0,0,2.296588,,,483.06965817476,6.56168,10.8044202,0,0,0,0,15.115,483.06965817476,2.296588,0,0,-8.94776,-6.039738,0,217.1, -5.7, -10.2,0,0,1024,1024,1024,365,0,0,0,-100,207.5,0,0,83,3.764,3.782,3.788,3.781,0,0,0,32,483.06965817476,2.296588,6,P-GPS,
10200,2023-09-17 18:14:24,0,0,2.624672,,,483.39774217476,6.56168,10.5583568,0,0,0,0,15.115,483.39774217476,2.624672,0,0,-8.94776,-5.59235,0,210.5, 12.5, -4.5,0,0,1024,1024,1024,364,0,0,0,-100,201.5,0,0,83,3.764,3.782,3.788,3.781,0,0,0,32,483.39774217476,2.624672,6,P-GPS,
10300,2023-09-17 18:14:24,0,0,2.624672,,,483.39774217476,6.56168,9.618842,0,0,0,0,15.115,483.39774217476,2.624672,0,0,-8.276678,-4.921268,-0.223694,204.3, 23.1, -4.6,0,0,1024,1024,1024,364,0,0,0,-100,195.5,0,0,83,3.764,3.782,3.788,3.781,0,0,0,32,483.39774217476,2.624672,6,P-GPS,
10400,2023-09-17 18:14:24,0,0,2.624672,,,483.39774217476,6.56168,8.5227414,0,0,0,0,15.115,483.39774217476,2.624672,0,0,-7.381902,-4.250186,-0.223694,198.2, 24.4, -6.6,0,0,1024,1024,1024,364,0,0,0,-100,189.5,0,0,83,3.764,3.782,3.788,3.781,0,0,0,32,483.39774217476,2.624672,6,P-GPS,
10500,2023-09-17 18:14:25,0,0,2.624672,,,483.39774217476,6.56168,7.717443,0,0,0,0,15.115,483.39774217476,2.624672,0,0,-6.71082,-3.802798,0,191.9, 23.9, -8.6,0,0,1024,1024,1024,364,0,0,0,-100,183.5,0,0,83,3.764,3.782,3.788,3.781,0,0,0,32,483.39774217476,2.624672,6,P-GPS,
10600,2023-09-17 18:14:25,0,0,2.624672,,,483.39774217476,6.56168,6.71082,0,0,0,0,15.115,483.39774217476,2.624672,0,0,-5.816044,-3.35541,0,185.2, 22.8, -10.9,0,0,1024,1024,1024,364,0,0,0,-100,177.4,0,0,83,3.764,3.782,3.788,3.781,0,0,0,32,483.39774217476,2.624672,6,P-GPS,
10700,2023-09-17 18:14:25,0,0,2.624672,,,483.39774217476,6.56168,5.6147194,0,0,0,0,15.115,483.39774217476,2.624672,0,0,-4.921268,-2.684328,0,178.9, 21.4, -13.6,0,0,1024,1024,1024,364,0,0,0,-100,171.4,0,0,83,3.764,3.782,3.788,3.781,0,0,0,32,483.39774217476,2.624672,6,P-GPS,
10800,2023-09-17 18:14:25,0,0,2.296588,,,483.06965817476,6.56168,4.6080964,0,0,0,0,15.115,483.39774217476,2.624672,0,0,-4.026492,-2.23694,0.223694,172.9, 19.9, -16,0,0,1024,1024,1024,364,0,0,0,-100,165.4,0,0,83,3.764,3.782,3.788,3.781,0,0,0,32,483.06965817476,2.296588,6,P-GPS,
10900,2023-09-17 18:14:25,0,0,2.296588,,,483.06965817476,6.56168,3.3106712,0,0,0,0,15.115,483.39774217476,2.624672,0,0,-2.908022,-1.565858,0.223694,167.1, 17.7, -16.6,0,0,1024,1024,1024,364,0,0,0,-100,159.3,0,0,83,3.764,3.782,3.788,3.781,0,0,0,32,483.06965817476,2.296588,6,P-GPS,
11000,2023-09-17 18:14:25,0,0,2.296588,,,483.06965817476,6.56168,2.3040482,0,0,0,0,15.115,483.39774217476,2.624672,0,0,-2.013246,-1.11847,0.447388,162, 13.7, -13.1,0,0,1024,1024,1024,364,0,0,0,-100,153.4,0,0,83,3.764,3.782,3.788,3.781,0,0,0,32,483.06965817476,2.296588,6,P-GPS,
11100,2023-09-17 18:14:25,0,0,1.968504,,,482.74157417476,6.56168,1.4987498,0,0,0,0,15.061,483.39774217476,2.624672,0,0,-1.342164,-0.671082,0.223694,157.4, 7.2, -10,0,0,1024,1024,1024,364,0,0,0,-100,147.3,0,0,83,3.652,3.774,3.811,3.824,0,0,0,32,482.74157417476,1.968504,6,P-GPS,
11200,2023-09-17 18:14:25,0,0,1.968504,,,482.74157417476,6.56168,0.8052984,0,0,0,0,15.061,483.39774217476,2.624672,0,0,-0.671082,-0.447388,0,152, 1.8, -7.7,0,0,1024,1024,1024,364,0,0,0,-100,141.4,0,0,83,3.652,3.774,3.811,3.824,0,0,0,32,482.74157417476,1.968504,6,P-GPS,
11300,2023-09-17 18:14:25,0,0,1.968504,,,482.74157417476,6.56168,0.8052984,0,0,0,0,15.061,483.39774217476,2.624672,0,0,-0.447388,-0.223694,0,146, -0.4, -5.4,0,0,1024,1024,1024,364,0,0,0,-100,135.4,0,0,83,3.652,3.774,3.811,3.824,0,0,0,32,482.74157417476,1.968504,6,P-GPS,
11400,2023-09-17 18:14:25,0,0,1.968504,,,482.74157417476,6.56168,0.223694,0,0,0,0,15.061,483.39774217476,2.624672,0,0,-0.223694,0,0,140, -1.6, -3.5,0,0,1024,1024,1024,364,0,0,0,-100,129.4,0,0,83,3.652,3.774,3.811,3.824,0,0,0,32,482.74157417476,1.968504,6,P-GPS,
11500,2023-09-17 18:14:25,0,0,1.968504,,,482.74157417476,6.56168,0,0,0,0,0,15.061,483.39774217476,2.624672,0,0,0,0,0,133.9, -1.7, -1.9,0,0,1024,1024,1024,364,0,0,0,-100,123.4,0,0,83,3.652,3.774,3.811,3.824,0,0,0,32,482.74157417476,1.968504,6,P-GPS,
11600,2023-09-17 18:14:26,0,0,1.968504,,,482.74157417476,6.56168,0,0,0,0,0,15.061,483.39774217476,2.624672,0,0,0,0,0,127.8, -1.4, -0.5,0,0,1024,1024,1024,387,0,0,0,-97,117.4,0,0,83,3.652,3.774,3.811,3.824,0,0,0,32,482.74157417476,1.968504,6,P-GPS,
11700,2023-09-17 18:14:26,0,0,1.968504,,,482.74157417476,6.56168,0.223694,0,0,0,0,15.061,483.39774217476,2.624672,0,0,0,0.223694,0,121.7, -1, 0.3,0,0,1024,1024,1024,1024,0,0,0,0,111.9,0,0,82,3.652,3.774,3.811,3.824,0,0,0,32,482.74157417476,1.968504,6,P-GPS,
11800,2023-09-17 18:14:26,0,0,1.968504,,,482.74157417476,6.56168,0.3131716,0,0,0,0,15.061,483.39774217476,2.624672,0,0,0.223694,0.223694,0,117.7, -0.7, 0.7,0,0,1024,1024,1024,1024,0,0,0,0,111.2,0,0,82,3.652,3.774,3.811,3.824,0,0,0,32,482.74157417476,1.968504,6,P-GPS,
11900,2023-09-17 18:14:26,0,0,1.968504,,,482.74157417476,6.56168,0.3131716,0,0,0,0,15.061,483.39774217476,2.624672,0,0,0.223694,0.223694,0,116.4, -0.5, 1.3,0,0,1024,1024,1024,1024,0,0,0,0,111.2,0,0,82,3.652,3.774,3.811,3.824,0,0,0,32,482.74157417476,1.968504,6,P-GPS,
12000,2023-09-17 18:14:26,0,0,1.968504,,,482.74157417476,6.56168,0.3131716,0,0,0,0,15.061,483.39774217476,2.624672,0,0,0.223694,0.223694,0,115.9, -0.2, 1.5,0,0,1024,1024,1024,1024,0,0,0,0,111.2,0,0,82,3.652,3.774,3.811,3.824,0,0,0,32,482.74157417476,1.968504,6,P-GPS,
12100,2023-09-17 18:14:26,0,0,1.968504,,,482.74157417476,6.56168,0.3131716,0,0,0,0,15.136,483.39774217476,2.624672,0,0,0.223694,0.223694,0,115.7, 0.3, 1.9,0,0,1024,1024,1024,1024,0,0,0,0,111.2,0,0,82,3.777,3.787,3.787,3.785,0,0,0,32,482.74157417476,1.968504,6,P-GPS,
12200,2023-09-17 18:14:26,0,0,1.968504,,,482.74157417476,6.56168,0.3131716,0,0,0,0,15.136,483.39774217476,2.624672,0,0,0.223694,0.223694,0,115.6, 0.5, 2.5,0,0,1024,1024,1024,526,0,0,0,-75,111.2,0,0,82,3.777,3.787,3.787,3.785,0,0,0,32,482.74157417476,1.968504,6,P-GPS,
12300,2023-09-17 18:14:26,0,0,1.968504,,,482.74157417476,6.56168,0.223694,0,0,0,0,15.136,483.39774217476,2.624672,0,0,0.223694,0,0,115.6, 0.4, 3.1,0,0,1024,1024,992,364,0,0,-5,-100,110.4,0,0,82,3.777,3.787,3.787,3.785,0,0,0,32,482.74157417476,1.968504,6,P-GPS,
12400,2023-09-17 18:14:26,0,0,1.968504,,,482.74157417476,6.56168,0.223694,0,0,0,0,15.136,483.39774217476,2.624672,0,0,0.223694,0,0,113.2, 0, 3,0,0,1024,1024,990,364,0,0,-5,-100,105.1,0,0,82,3.777,3.787,3.787,3.785,0,0,0,32,482.74157417476,1.968504,6,P-GPS,
12500,2023-09-17 18:14:27,0,0,1.968504,,,482.74157417476,6.56168,0.223694,0,0,0,0,15.136,483.39774217476,2.624672,0,0,0.223694,0,0,108.4, -0.5, 2.3,0,0,1024,1024,1024,579,0,0,0,-67,99.1,0,0,82,3.777,3.787,3.787,3.785,0,0,0,32,482.74157417476,1.968504,6,P-GPS,
12600,2023-09-17 18:14:27,0,0,1.968504,,,482.74157417476,6.889764,0.223694,0,0,0,0,15.136,483.39774217476,2.624672,0,0,0.223694,0,0,103, -1, 2,0,0,1024,1024,1024,1024,0,0,0,0,94.9,0,0,82,3.777,3.787,3.787,3.785,0,0,0,32,482.74157417476,1.968504,6,P-GPS,
12700,2023-09-17 18:14:27,0,0,1.968504,,,482.74157417476,6.56168,0.447388,0,0,0,0,15.136,483.39774217476,2.624672,0,0,0.447388,0,0,100.5, -1.9, 1.6,0,0,1024,1024,1024,1024,0,0,0,0,94.7,0,0,82,3.777,3.787,3.787,3.785,0,0,0,32,482.74157417476,1.968504,6,P-GPS,
12800,2023-09-17 18:14:27,0,0,1.968504,,,482.74157417476,6.56168,0.447388,0,0,0,0,15.136,483.39774217476,2.624672,0,0,0.447388,0,0,99.6, -2.2, 2.2,0,0,1024,1024,1024,1024,0,0,0,0,94.7,0,0,82,3.777,3.787,3.787,3.785,0,0,0,32,482.74157417476,1.968504,6,P-GPS,
12900,2023-09-17 18:14:27,0,0,1.968504,,,482.74157417476,6.56168,0.447388,0,0,0,0,15.136,483.39774217476,2.624672,0,0,0.447388,0,0,99.2, -2.1, 2.7,0,0,1024,1024,1024,1024,0,0,0,0,94.7,0,0,82,3.777,3.787,3.787,3.785,0,0,0,32,482.74157417476,1.968504,6,P-GPS,
13000,2023-09-17 18:14:27,0,0,1.968504,,,482.74157417476,6.56168,0.447388,0,0,0,0,15.136,483.39774217476,2.624672,0,0,0.447388,0,0,99, -1.8, 3.3,0,0,1024,1024,1024,1024,0,0,0,0,94.7,0,0,82,3.777,3.787,3.787,3.785,0,0,0,32,482.74157417476,1.968504,6,P-GPS,
13100,2023-09-17 18:14:27,0,0,1.968504,,,482.74157417476,6.56168,0.447388,0,0,0,0,15.136,483.39774217476,2.624672,0,0,0.447388,0,0,98.9, -2, 4.1,0,0,1024,1024,1024,1024,0,0,0,0,94.7,0,0,82,3.777,3.787,3.787,3.785,0,0,0,32,482.74157417476,1.968504,6,P-GPS,
13200,2023-09-17 18:14:27,0,0,1.968504,,,482.74157417476,6.56168,0.447388,0,0,0,0,15.165,483.39774217476,2.624672,0,0,0.447388,0,0,98.8, -1.8, 4.1,0,0,1024,1024,1024,1024,0,0,0,0,94.7,0,0,82,3.784,3.794,3.794,3.793,0,0,0,32,482.74157417476,1.968504,6,P-GPS,
13300,2023-09-17 18:14:27,0,0,1.968504,,,482.74157417476,6.56168,0.223694,0,0,0,0,15.165,483.39774217476,2.624672,0,0,0.223694,0,0,98.8, -1.7, 3.7,0,0,1024,1024,1024,1024,0,0,0,0,94.7,0,0,82,3.784,3.794,3.794,3.793,0,0,0,32,482.74157417476,1.968504,6,P-GPS,
13400,2023-09-17 18:14:27,0,0,1.968504,,,482.74157417476,6.56168,0.223694,0,0,0,0,15.165,483.39774217476,2.624672,0,0,0.223694,0,0,98.7, -1.5, 3.8,0,0,1024,1024,1024,1024,0,0,0,0,94.7,0,0,82,3.784,3.794,3.794,3.793,0,0,0,32,482.74157417476,1.968504,6,P-GPS,
13500,2023-09-17 18:14:28,0,0,1.968504,,,482.74157417476,6.56168,0.223694,0,0,0,0,15.165,483.39774217476,2.624672,0,0,0.223694,0,0,98.7, -1.4, 4.1,0,0,1427,1024,1024,1024,61,0,0,0,94.7,0,0,82,3.784,3.794,3.794,3.793,0,0,0,32,482.74157417476,1.968504,6,P-GPS,
13600,2023-09-17 18:14:28,0,0,1.968504,,,482.74157417476,6.56168,0.223694,0,0,0,0,15.165,483.39774217476,2.624672,0,0,0.223694,0,0,98.7, -1.4, 4.1,0,0,1684,1024,1024,1024,100,0,0,0,94.7,0,0,82,3.784,3.794,3.794,3.793,0,0,0,32,482.74157417476,1.968504,6,P-GPS,
13700,2023-09-17 18:14:28,0,0,1.968504,,,482.74157417476,6.56168,0.223694,0,0,0,0,15.165,483.39774217476,2.624672,0,0,0.223694,0,0,98.6, -6.9, 4,0,0,1684,1024,1024,1024,100,0,0,0,94.7,0,0,82,3.784,3.794,3.794,3.793,0,0,0,32,482.74157417476,1.968504,6,P-GPS,
13800,2023-09-17 18:14:28,0,0,1.968504,,,482.74157417476,6.56168,0.3131716,0,0,0,0,15.165,483.39774217476,2.624672,0,0,0.223694,0.223694,0,98.5, -14.3, 3.2,0,0,1684,1024,1024,1024,100,0,0,0,94.7,0,0,82,3.784,3.794,3.794,3.793,0,0,0,32,482.74157417476,1.968504,6,P-GPS,
13900,2023-09-17 18:14:28,0,0,1.968504,,,482.74157417476,6.889764,0.894776,0,0,0,0,15.165,483.39774217476,2.624672,0,0,0,0.894776,0,98.4, -18.9, 2.9,0,0,1684,1226,1024,1024,100,31,0,0,94.7,0,0,82,3.784,3.794,3.794,3.793,0,0,0,32,482.74157417476,1.968504,6,P-GPS,
14000,2023-09-17 18:14:28,0,0,1.968504,,,482.74157417476,7.217848,1.565858,0,0,0,0,15.165,483.39774217476,2.624672,0,0,0,1.565858,0,98.6, -20.3, 2.9,0,0,1684,1363,1024,1024,100,51,0,0,94.7,0,0,82,3.784,3.794,3.794,3.793,0,0,0,32,482.74157417476,1.968504,6,P-GPS,
14100,2023-09-17 18:14:28,0,0,1.968504,,,482.74157417476,7.217848,2.460634,0,0,0,0,15.165,483.39774217476,2.624672,0,0,0,2.460634,0,98.5, -20.2, 4.2,0,0,1684,1382,1024,1024,100,54,0,0,94.7,0,0,82,3.784,3.794,3.794,3.793,0,0,0,32,482.74157417476,1.968504,6,P-GPS,
14200,2023-09-17 18:14:28,0,0,1.968504,,,482.74157417476,7.217848,3.131716,0,0,0,0,15.075,483.39774217476,2.624672,0,0,-0.223694,3.131716,0,98.3, -19.4, 6.8,0,0,1684,1389,1024,1024,100,55,0,0,94.7,0,0,82,3.761,3.77,3.772,3.772,0,0,0,32,482.74157417476,1.968504,6,P-GPS,
14300,2023-09-17 18:14:28,0,0,1.968504,,,482.74157417476,7.545932,3.8251674,0,0,0,0,15.075,483.39774217476,2.624672,0,0,-0.447388,3.802798,0,98, -18.7, 8.4,0,0,1684,1395,1024,1024,100,56,0,0,94.7,0,0,82,3.761,3.77,3.772,3.772,0,0,0,32,482.74157417476,1.968504,6,P-GPS,
14400,2023-09-17 18:14:28,0,0,1.968504,,,482.74157417476,7.545932,4.5186188,0,0,0,0,15.075,483.39774217476,2.624672,0,0,-0.671082,4.47388,0,97.8, -18.5, 9,0,0,1684,1395,1024,1024,100,56,0,0,94.7,0,0,82,3.761,3.77,3.772,3.772,0,0,0,32,482.74157417476,1.968504,6,P-GPS,
14500,2023-09-17 18:14:28,0,0,1.968504,,,482.74157417476,7.545932,4.5186188,0,0,0,0,15.075,483.39774217476,2.624672,0,0,-1.11847,5.144962,0,97.7, -18.3, 9.1,0,0,1684,1411,1024,1024,100,59,0,0,94.7,0,0,82,3.761,3.77,3.772,3.772,0,0,0,32,482.74157417476,1.968504,6,P-GPS,
14600,2023-09-17 18:14:29,0,0,1.968504,,,482.74157417476,7.545932,5.7489358,0,0,0,0,15.075,483.39774217476,2.624672,0,0,-1.342164,5.59235,-0.223694,97.7, -17.8, 9,0,0,1684,1524,1024,1024,100,76,0,0,94.7,0,0,82,3.761,3.77,3.772,3.772,0,0,0,32,482.74157417476,1.968504,6,P-GPS,
14700,2023-09-17 18:14:29,0,0,1.968504,,,482.74157417476,7.545932,6.4647566,0,0,0,0,15.075,483.39774217476,2.624672,0,0,-1.565858,6.263432,-0.223694,97.6, -17.5, 9.1,0,0,1684,1684,1024,1024,100,100,0,0,94.7,0,0,82,3.761,3.77,3.772,3.772,0,0,0,32,482.74157417476,1.968504,6,P-GPS,
14800,2023-09-17 18:14:29,0,0,2.296588,,,483.06965817476,7.545932,6.4647566,0,0,0,0,15.075,483.39774217476,2.624672,0,0,-2.013246,6.71082,0,97.4, -16.7, 11,0,0,1664,1684,1024,1024,97,100,0,0,94.7,0,0,82,3.761,3.77,3.772,3.772,0,0,0,32,483.06965817476,2.296588,6,P-GPS,
14900,2023-09-17 18:14:29,0,0,2.296588,,,483.06965817476,7.545932,7.493749,0,0,0,0,15.075,483.39774217476,2.624672,0,0,-2.23694,7.158208,0,97.2, -14.9, 14.3,0,0,1652,1684,1024,1024,95,100,0,0,94.7,0,0,82,3.761,3.77,3.772,3.772,0,0,0,32,483.06965817476,2.296588,6,P-GPS,
15000,2023-09-17 18:14:29,0,0,2.296588,,,483.06965817476,7.545932,8.1424616,0,0,0,0,15.075,483.39774217476,2.624672,0,0,-2.908022,7.605596,0,97.3, -13, 16.5,0,0,1652,1684,1024,1024,95,100,0,0,94.7,0,0,82,3.761,3.77,3.772,3.772,0,0,0,32,483.06965817476,2.296588,6,P-GPS,
15100,2023-09-17 18:14:29,0,0,2.296588,,,483.06965817476,7.545932,8.5227414,0,0,0,0,15.075,483.39774217476,2.624672,0,0,-3.35541,7.82929,0,97.5, -11.4, 17.8,0,0,1642,1592,1024,1024,94,86,0,0,94.7,0,0,82,3.761,3.77,3.772,3.772,0,0,0,32,483.06965817476,2.296588,6,P-GPS,
15200,2023-09-17 18:14:29,0,0,2.296588,,,483.06965817476,7.545932,8.9924988,0,0,0,0,14.967,483.39774217476,2.624672,0,0,-4.026492,8.052984,0,97.6, -10.2, 18,0,0,1612,1168,1024,1024,89,22,0,0,94.7,0,0,82,3.733,3.743,3.745,3.746,0,0,0,32,483.06965817476,2.296588,6,P-GPS,
15300,2023-09-17 18:14:29,0,0,2.296588,,,483.06965817476,7.545932,9.506995,0,0,0,0,14.967,483.39774217476,2.624672,0,0,-4.697574,8.276678,0,97.5, -10.7, 16.3,0,0,1609,1024,1024,1024,89,0,0,0,94.7,0,0,82,3.733,3.743,3.745,3.746,0,0,0,32,483.06965817476,2.296588,6,P-GPS,
15400,2023-09-17 18:14:29,0,0,2.296588,,,483.06965817476,7.545932,9.9320136,0,0,0,0,14.967,483.39774217476,2.624672,0,0,-5.144962,8.500372,0,97.5, -13.4, 10.3,0,0,1609,1024,1024,1024,89,0,0,0,94.7,0,0,82,3.733,3.743,3.745,3.746,0,0,0,32,483.06965817476,2.296588,6,P-GPS,
15500,2023-09-17 18:14:30,0,0,2.296588,,,483.06965817476,7.545932,10.4241404,0,0,0,0,14.967,483.39774217476,2.624672,0,0,-5.368656,8.94776,0,97.9, -15.2, 5.1,0,0,1495,1024,1024,1024,71,0,0,0,94.7,0,0,82,3.733,3.743,3.745,3.746,0,0,0,32,483.06965817476,2.296588,6,P-GPS,
15600,2023-09-17 18:14:30,0,0,2.296588,,,483.06965817476,7.545932,10.9386366,0,0,0,0,14.967,483.39774217476,2.624672,0,0,-5.59235,9.395148,0,98.3, -16.1, 2.1,0,0,1083,1024,1024,1024,9,0,0,0,94.7,0,0,82,3.733,3.743,3.745,3.746,0,0,0,32,483.06965817476,2.296588,6,P-GPS,
15700,2023-09-17 18:14:30,0,0,2.296588,,,483.06965817476,7.545932,11.1175918,0,0,0,0,14.967,483.39774217476,2.624672,0,0,-5.59235,9.618842,0,98.7, -14.1, 0.9,0,0,1024,1024,1024,1024,0,0,0,0,94.7,0,0,82,3.733,3.743,3.745,3.746,0,0,0,32,483.06965817476,2.296588,6,P-GPS,
15800,2023-09-17 18:14:30,0,0,2.296588,,,483.06965817476,7.545932,11.3189164,0,0,0,0,14.967,483.39774217476,2.624672,0,0,-5.59235,9.842536,0,98.8, -2.7, -1,0,0,1024,1024,1024,1024,0,0,0,0,94.7,0,0,82,3.733,3.743,3.745,3.746,0,0,0,32,483.06965817476,2.296588,6,P-GPS,
15900,2023-09-17 18:14:30,0,0,2.296588,,,483.06965817476,7.545932,10.9162672,0,0,4,0,14.967,483.39774217476,2.624672,0,0,-5.144962,9.618842,-0.223694,97.6, 17.7, -6.7,0,0,1024,1024,1024,1024,0,0,0,0,94.7,0,0,82,3.733,3.743,3.745,3.746,0,0,0,32,483.06965817476,2.296588,6,P-GPS,
16000,2023-09-17 18:14:30,0,0,2.296588,,,483.06965817476,6.889764,9.9096442,0,0,4,0,14.967,483.39774217476,2.624672,0,0,-4.697574,8.724066,-0.223694,97.4, 22.3, -7.5,0,0,1024,1024,1024,1024,0,0,0,0,94.7,0,0,82,3.733,3.743,3.745,3.746,0,0,0,32,483.06965817476,2.296588,6,P-GPS,
16100,2023-09-17 18:14:30,0,0,2.296588,,,483.06965817476,6.889764,8.9030212,0,0,4,0,14.967,483.39774217476,2.624672,0,0,-4.250186,7.82929,0,97.5, 23.8, -7.8,0,0,1024,1024,1024,1024,0,0,0,0,94.7,0,0,82,3.733,3.743,3.745,3.746,0,0,0,32,483.06965817476,2.296588,6,P-GPS,
16200,2023-09-17 18:14:30,0,0,2.296588,,,483.06965817476,7.217848,7.8069206,0,0,4,0,15.098,483.39774217476,2.624672,0,0,-3.579104,6.934514,0,97.3, 25.5, -8.1,0,0,1024,1024,1024,1024,0,0,0,0,94.7,0,0,82,3.757,3.776,3.782,3.783,0,0,0,32,483.06965817476,2.296588,6,P-GPS,
16300,2023-09-17 18:14:30,0,0,1.968504,,,482.74157417476,7.217848,6.8002976,0,0,4,0,15.098,483.39774217476,2.624672,0,0,-3.131716,6.039738,0.223694,97.4, 26.6, -7.8,0,0,1024,1007,1024,1024,0,-3,0,0,94.7,0,0,82,3.757,3.776,3.782,3.783,0,0,0,32,482.74157417476,1.968504,6,P-GPS,
16400,2023-09-17 18:14:30,0,0,1.968504,,,482.74157417476,6.889764,5.5028724,0,0,4,0,15.098,483.39774217476,2.624672,0,0,-2.460634,4.921268,0.223694,97.8, 25.8, -7.2,0,0,1024,1024,1024,1024,0,0,0,0,94.7,0,0,82,3.757,3.776,3.782,3.783,0,0,0,32,482.74157417476,1.968504,6,P-GPS,
16500,2023-09-17 18:14:31,0,0,1.968504,,,482.74157417476,7.217848,4.2054472,0,0,7,0,15.098,483.39774217476,2.624672,4.2054472,0,-1.789552,3.802798,0,97.9, 22.9, -8.1,0,0,1024,1024,1024,1024,0,0,0,0,94.7,0,0,82,3.757,3.776,3.782,3.783,0,0,0,32,482.74157417476,1.968504,6,P-GPS,
16600,2023-09-17 18:14:31,0,0,1.64042,,,482.41349017476,7.217848,3.1093466,0,0,7,0,15.098,483.39774217476,2.624672,4.2054472,0,-1.11847,2.908022,0,98.3, 17.8, -6.9,0,0,1024,1024,1024,1024,0,0,0,0,94.7,0,0,82,3.757,3.776,3.782,3.783,0,0,0,32,482.41349017476,1.64042,6,P-GPS,
16700,2023-09-17 18:14:31,0,0,1.64042,,,482.41349017476,7.217848,2.3264176,0,0,7,0,15.098,483.39774217476,2.624672,4.2054472,0,-0.671082,2.23694,0,98.8, 12.8, -4.5,0,0,1024,1024,1024,1024,0,0,0,0,94.7,0,0,82,3.757,3.776,3.782,3.783,0,0,0,32,482.41349017476,1.64042,6,P-GPS,
16800,2023-09-17 18:14:31,0,0,1.64042,,,482.41349017476,7.545932,1.8119214,0,0,7,0,15.098,483.39774217476,2.624672,4.2054472,0,-0.223694,1.789552,0,98.8, 10.2, -1.9,0,0,1024,1024,1024,1024,0,0,0,0,94.7,0,0,82,3.757,3.776,3.782,3.783,0,0,0,32,482.41349017476,1.64042,6,P-GPS,
16900,2023-09-17 18:14:31,0,0,1.968504,,,482.74157417476,7.874016,1.342164,0,0,7,0,15.098,483.39774217476,2.624672,4.2054472,0,0,1.342164,0,98.7, 7.7, -0.2,0,0,1262,1024,995,1024,36,0,-4,0,94.7,0,0,82,3.757,3.776,3.782,3.783,0,0,0,32,482.74157417476,1.968504,6,P-GPS,
17000,2023-09-17 18:14:31,0,0,1.968504,,,482.74157417476,7.874016,0.894776,0,0,7,0,15.098,483.39774217476,2.624672,4.2054472,0,0,0.894776,0,98.8, 5.3, 0.3,0,0,1554,1024,1024,1024,80,0,0,0,94.7,0,0,82,3.757,3.776,3.782,3.783,0,0,0,32,482.74157417476,1.968504,6,P-GPS,
17100,2023-09-17 18:14:31,0,0,1.968504,,,482.74157417476,7.545932,0.9171454,0,0,7,0,15.098,483.39774217476,2.624672,4.2054472,0,0.223694,0.894776,0,98.8, 1, 1.2,0,0,1664,1024,1024,1024,97,0,0,0,94.7,0,0,82,3.757,3.776,3.782,3.783,0,0,0,32,482.74157417476,1.968504,6,P-GPS,
17200,2023-09-17 18:14:31,0,0,1.968504,,,482.74157417476,7.217848,0.9171454,0,0,7,0,14.859,483.39774217476,2.624672,4.2054472,0,0.223694,0.894776,0,98.7, -5.2, 1.9,0,0,1684,1024,1024,1024,100,0,0,0,94.7,0,0,82,3.694,3.715,3.726,3.724,0,0,0,32,482.74157417476,1.968504,6,P-GPS,
17300,2023-09-17 18:14:31,0,0,2.296588,,,483.06965817476,7.217848,0.9171454,0,0,7,0,14.859,483.39774217476,2.624672,4.2054472,0,0.223694,1.11847,0,98.7, -9.1, 2.6,0,0,1684,1024,1024,1024,100,0,0,0,94.7,0,0,82,3.694,3.715,3.726,3.724,0,0,0,32,483.06965817476,2.296588,6,P-GPS,
17400,2023-09-17 18:14:31,0,0,2.296588,,,483.06965817476,7.217848,0.447388,0,0,7,0,14.859,483.39774217476,2.624672,4.2054472,0,0,0.447388,0,99, -15.6, 1.2,0,0,1684,1024,1024,1024,100,0,0,0,94.7,0,0,82,3.694,3.715,3.726,3.724,0,0,0,32,483.06965817476,2.296588,1,Atti,
17500,2023-09-17 18:14:31,0,0,2.296588,,,483.06965817476,7.217848,1.11847,0,0,7,0,14.859,483.39774217476,2.624672,4.2054472,0,0,1.11847,0,98.9, -15.6, 0.9,0,0,1684,1024,1024,1024,100,0,0,0,94.7,0,0,82,3.694,3.715,3.726,3.724,0,0,0,32,483.06965817476,2.296588,1,Atti,
17600,2023-09-17 18:14:32,0,0,2.296588,,,483.06965817476,7.217848,1.565858,0,0,7,0,14.859,483.39774217476,2.624672,4.2054472,0,0,1.565858,0,98.9, -11.6, 0.8,0,0,1684,1024,1024,1024,100,0,0,0,94.7,0,0,82,3.694,3.715,3.726,3.724,0,0,0,32,483.06965817476,2.296588,1,Atti,
17700,2023-09-17 18:14:32,0,0,2.296588,,,483.06965817476,7.545932,1.565858,0,0,7,0,14.859,483.39774217476,2.624672,4.2054472,0,0,1.565858,0,98.9, -10.1, 0.7,0,0,1684,1024,1024,1024,100,0,0,0,94.7,0,0,82,3.694,3.715,3.726,3.724,0,0,0,32,483.06965817476,2.296588,1,Atti,
17800,2023-09-17 18:14:32,0,0,2.296588,,,483.06965817476,7.874016,1.342164,0,0,7,0,14.859,483.39774217476,2.624672,4.2054472,0,0,1.342164,0,98.9, -10.1, 0.4,0,0,1684,1024,1024,1024,100,0,0,0,94.7,0,0,82,3.694,3.715,3.726,3.724,0,0,0,32,483.06965817476,2.296588,1,Atti,
17900,2023-09-17 18:14:32,0,0,2.296588,,,483.06965817476,7.545932,1.11847,0,0,7,0,14.859,483.39774217476,2.624672,4.2054472,0,0,1.11847,0,98.9, -10.8, 0.4,0,0,1684,1024,1024,1024,100,0,0,0,94.7,0,0,82,3.694,3.715,3.726,3.724,0,0,0,32,483.06965817476,2.296588,1,Atti,
18000,2023-09-17 18:14:32,0,0,2.296588,,,483.06965817476,7.545932,1.11847,0,0,7,0,14.859,483.39774217476,2.624672,4.2054472,0,0,1.11847,0,99, -11.6, 0.4,0,0,1684,1024,1024,1024,100,0,0,0,94.7,0,0,82,3.694,3.715,3.726,3.724,0,0,0,32,483.06965817476,2.296588,1,Atti,
18100,2023-09-17 18:14:32,0,0,2.624672,,,483.39774217476,7.545932,1.11847,0,0,7,0,14.859,483.39774217476,2.624672,4.2054472,0,0,1.11847,0,99, -12.2, 0.9,0,0,1684,1024,1024,1024,100,0,0,0,94.7,0,0,82,3.694,3.715,3.726,3.724,0,0,0,32,483.39774217476,2.624672,1,Atti,
18200,2023-09-17 18:14:32,0,0,2.624672,,,483.39774217476,7.545932,1.11847,0,0,7,0,14.666,483.39774217476,2.624672,4.2054472,0,0,1.11847,0,99, -12.6, 0.7,0,0,1684,1024,1024,1024,100,0,0,0,94.7,0,0,82,3.708,3.605,3.675,3.678,0,0,0,32,483.39774217476,2.624672,1,Atti,
18300,2023-09-17 18:14:32,0,0,2.624672,,,483.39774217476,7.545932,1.11847,0,0,7,0,14.666,483.39774217476,2.624672,4.2054472,0,0,1.11847,0,99.1, -13, 0.2,0,0,1684,1024,1024,1024,100,0,0,0,94.7,0,0,82,3.708,3.605,3.675,3.678,0,0,0,32,483.39774217476,2.624672,1,Atti,
18400,2023-09-17 18:14:32,0,0,2.624672,,,483.39774217476,7.545932,1.11847,0,0,7,0,14.666,483.39774217476,2.624672,4.2054472,0,0,1.11847,0,99.1, -13.8, 0.4,0,0,1684,1024,1024,1024,100,0,0,0,94.7,0,0,82,3.708,3.605,3.675,3.678,0,0,0,32,483.39774217476,2.624672,1,Atti,"Weak GPS signal. Aircraft is in Attitude mode and hovering may be unstable. Fly with caution."
18500,2023-09-17 18:14:33,0,0,2.296588,,,483.06965817476,7.545932,5.59235,0,0,9,0,14.666,483.39774217476,2.624672,5.59235,0,-0.223694,5.59235,0,99.1, -8.6, 0.5,0,0,1024,1024,1024,1024,0,0,0,0,94.7,0,0,82,3.708,3.605,3.675,3.678,0,0,0,32,483.06965817476,2.296588,6,P-GPS,
18600,2023-09-17 18:14:33,0,0,2.296588,,,483.06965817476,7.545932,5.816044,0,0,9,0,14.666,483.39774217476,2.624672,5.816044,0,-0.223694,5.816044,0,99.2, -2.3, 1.4,0,0,1024,1024,1024,1024,0,0,0,0,94.7,0,0,82,3.708,3.605,3.675,3.678,0,0,0,32,483.06965817476,2.296588,6,P-GPS,
18700,2023-09-17 18:14:33,0,0,2.296588,,,483.06965817476,7.545932,5.59235,0,0,9,0,14.666,483.39774217476,2.624672,5.816044,0,-0.223694,5.59235,0,99.4, 8.6, 2.2,0,0,1024,1024,1024,1024,0,0,0,0,94.7,0,0,82,3.708,3.605,3.675,3.678,0,0,0,32,483.06965817476,2.296588,6,P-GPS,
18800,2023-09-17 18:14:33,0,0,2.296588,,,483.06965817476,7.217848,4.921268,0,0,9,0,14.666,483.39774217476,2.624672,5.816044,0,-0.223694,4.921268,0,99.5, 16.9, 1.9,0,0,1024,1024,1024,1024,0,0,0,0,94.7,0,0,82,3.708,3.605,3.675,3.678,0,0,0,32,483.06965817476,2.296588,6,P-GPS,
18900,2023-09-17 18:14:33,0,0,2.296588,,,483.06965817476,7.217848,4.250186,0,0,9,0,14.666,483.39774217476,2.624672,5.816044,0,-0.223694,4.250186,0,99.3, 19.2, 1.4,0,0,1024,1024,1024,1024,0,0,0,0,94.7,0,0,82,3.708,3.605,3.675,3.678,0,0,0,32,483.06965817476,2.296588,6,P-GPS,
19000,2023-09-17 18:14:33,0,0,1.968504,,,482.74157417476,7.217848,3.35541,0,0,9,0,14.666,483.39774217476,2.624672,5.816044,0,-0.223694,3.35541,0.223694,99.1, 16.9, 1.4,0,0,1024,1024,1024,1024,0,0,0,0,94.7,0,0,82,3.708,3.605,3.675,3.678,0,0,0,32,482.74157417476,1.968504,6,P-GPS,
19100,2023-09-17 18:14:33,0,0,1.968504,,,482.74157417476,6.889764,2.684328,0,0,9,0,14.666,483.39774217476,2.624672,5.816044,0,-0.223694,2.684328,0,99, 12.1, 0.8,0,0,1024,1024,1024,1024,0,0,0,0,94.7,0,0,82,3.708,3.605,3.675,3.678,0,0,0,32,482.74157417476,1.968504,6,P-GPS,
19200,2023-09-17 18:14:33,0,0,1.968504,,,482.74157417476,6.889764,2.0356154,0,0,9,0,14.666,483.39774217476,2.624672,5.816044,0,-0.223694,2.013246,0,99, 8.2, 0.5,0,0,1024,1024,1024,1024,0,0,0,0,94.7,0,0,82,3.708,3.605,3.675,3.678,0,0,0,32,482.74157417476,1.968504,6,P-GPS,
19300,2023-09-17 18:14:33,0,0,1.64042,,,482.41349017476,6.889764,1.5882274,0,0,9,0,14.893,483.39774217476,2.624672,5.816044,0,-0.223694,1.565858,0,99.1, 6.3, 0.3,0,0,1024,1024,1024,1024,0,0,0,0,94.7,0,0,82,3.761,3.763,3.661,3.708,0,0,0,32,482.41349017476,1.64042,6,P-GPS,
19400,2023-09-17 18:14:33,0,0,1.968504,,,482.74157417476,6.889764,1.3645334,0,0,9,0,14.893,483.39774217476,2.624672,5.816044,0,-0.223694,1.342164,0,99.1, 5.6, 0.2,0,0,1024,1024,1024,1024,0,0,0,0,94.7,0,0,82,3.761,3.763,3.661,3.708,0,0,0,32,482.74157417476,1.968504,6,P-GPS,
19500,2023-09-17 18:14:34,0,0,1.968504,,,482.74157417476,6.889764,0.9171454,0,0,9,0,14.893,483.39774217476,2.624672,5.816044,0,-0.223694,0.894776,0,99.1, 5.1, 0.1,0,0,1024,1024,1024,1024,0,0,0,0,94.7,0,0,82,3.761,3.763,3.661,3.708,0,0,0,32,482.74157417476,1.968504,6,P-GPS,
19600,2023-09-17 18:14:34,0,0,1.968504,,,482.74157417476,6.889764,0.894776,0,0,9,0,14.893,483.39774217476,2.624672,5.816044,0,0,0.894776,0,99.2, 4.3, 0,0,0,1024,1024,1024,1024,0,0,0,0,94.7,0,0,82,3.761,3.763,3.661,3.708,0,0,0,32,482.74157417476,1.968504,6,P-GPS,
19700,2023-09-17 18:14:34,0,0,1.968504,,,482.74157417476,6.889764,0.671082,0,0,9,0,14.893,483.39774217476,2.624672,5.816044,0,0,0.671082,0,99.1, 3.6, 0,0,0,1024,1024,1024,1024,0,0,0,0,94.7,0,0,82,3.761,3.763,3.661,3.708,0,0,0,32,482.74157417476,1.968504,6,P-GPS,
19800,2023-09-17 18:14:34,0,0,1.968504,,,482.74157417476,6.889764,0.447388,0,0,9,0,14.893,483.39774217476,2.624672,5.816044,0,0,0.447388,0,99.1, 2.9, 0,0,0,1024,1024,1024,1024,0,0,0,0,94.7,0,0,82,3.761,3.763,3.661,3.708,0,0,0,32,482.74157417476,1.968504,6,P-GPS,
19900,2023-09-17 18:14:34,0,0,1.968504,,,482.74157417476,7.217848,0.447388,0,0,9,2,14.893,483.39774217476,2.624672,5.816044,0,0,0.447388,0,99.1, 2.6, 0.1,0,0,1106,1024,1024,1024,12,0,0,0,94.7,0,0,82,3.761,3.763,3.661,3.708,0,0,0,32,482.74157417476,1.968504,6,P-GPS,
20000,2023-09-17 18:14:34,0,0,2.296588,,,483.06965817476,7.217848,0.223694,0,0,9,2,14.893,483.39774217476,2.624672,5.816044,0,0,0.223694,0,99.1, 2.2, 0.3,0,0,1491,1024,1024,1024,71,0,0,0,94.7,0,0,82,3.761,3.763,3.661,3.708,0,0,0,32,483.06965817476,2.296588,6,P-GPS,
20100,2023-09-17 18:14:34,0,0,2.296588,,,483.06965817476,6.889764,0,0,0,9,2,14.893,483.39774217476,2.624672,5.816044,0,0,0,0,99.2, 1.1, 0.3,0,0,1629,1024,1024,1024,92,0,0,0,94.7,0,0,82,3.761,3.763,3.661,3.708,0,0,0,32,483.06965817476,2.296588,6,P-GPS,
20200,2023-09-17 18:14:34,0,0,2.296588,,,483.06965817476,7.217848,0,0,0,9,2,14.977,483.39774217476,2.624672,5.816044,0,0,0,0,99.1, -3.2, 0.2,0,0,1632,1024,1024,1024,92,0,0,0,94.7,0,0,82,3.736,3.748,3.749,3.744,0,0,0,32,483.06965817476,2.296588,6,P-GPS,
20300,2023-09-17 18:14:34,0,0,2.296588,,,483.06965817476,7.217848,0,0,0,9,2,14.977,483.39774217476,2.624672,5.816044,0,0,0.223694,0,99.1, -6.3, 0.1,0,0,1630,1024,1024,1024,92,0,0,0,94.7,0,0,82,3.736,3.748,3.749,3.744,0,0,0,32,483.06965817476,2.296588,6,P-GPS,
20400,2023-09-17 18:14:34,0,0,2.296588,,,483.06965817476,7.217848,0.447388,0,0,9,2,14.977,483.39774217476,2.624672,5.816044,0,0,0.447388,0,99.1, -7.8, 0.1,0,0,1630,1024,1024,1024,92,0,0,0,94.7,0,0,82,3.736,3.748,3.749,3.744,0,0,0,32,483.06965817476,2.296588,6,P-GPS,
20500,2023-09-17 18:14:34,0,0,2.296588,,,483.06965817476,7.217848,0.671082,0,0,9,2,14.977,483.39774217476,2.624672,5.816044,0,0,0.671082,0,99.1, -8.3, 0,0,0,1652,1024,1024,1024,95,0,0,0,94.7,0,0,82,3.736,3.748,3.749,3.744,0,0,0,32,483.06965817476,2.296588,6,P-GPS,
20600,2023-09-17 18:14:35,0,0,2.296588,,,483.06965817476,7.217848,0.894776,0,0,9,2,14.977,483.39774217476,2.624672,5.816044,0,0,0.894776,0,99.2, -8.2, 0.3,0,0,1684,1024,1024,1024,100,0,0,0,94.7,0,0,82,3.736,3.748,3.749,3.744,0,0,0,32,483.06965817476,2.296588,6,P-GPS,
20700,2023-09-17 18:14:35,0,0,2.296588,,,483.06965817476,7.217848,1.1408394,0,0,9,2,14.977,483.39774217476,2.624672,5.816044,0,-0.223694,1.11847,0,99.3, -8.2, 0.5,0,0,1684,1024,1024,1024,100,0,0,0,94.7,0,0,82,3.736,3.748,3.749,3.744,0,0,0,32,483.06965817476,2.296588,6,P-GPS,"Setting new Maximum Flight Altitude to 120m (394 ft)"
20800,2023-09-17 18:14:35,0,0,2.296588,,,483.06965817476,7.217848,1.1408394,0,0,9,2,14.977,483.39774217476,2.624672,5.816044,0,-0.223694,1.565858,0,99.3, -8.1, 0.8,0,0,1684,1024,1024,1024,100,0,0,0,94.7,0,0,82,3.736,3.748,3.749,3.744,0,0,0,32,483.06965817476,2.296588,6,P-GPS,
20900,2023-09-17 18:14:35,0,0,2.296588,,,483.06965817476,7.217848,1.8119214,0,0,9,2,14.977,483.39774217476,2.624672,5.816044,0,-0.223694,1.789552,0,99.3, -7.8, 0.6,0,0,1684,1024,1024,1024,100,0,0,0,94.7,0,0,82,3.736,3.748,3.749,3.744,0,0,0,32,483.06965817476,2.296588,6,P-GPS,
21000,2023-09-17 18:14:35,0,0,2.296588,,,483.06965817476,7.217848,2.0579848,0,0,9,2,14.977,483.39774217476,2.624672,5.816044,0,-0.447388,2.013246,0,99.4, -7.6, 0.2,0,0,1684,1024,1024,1024,100,0,0,0,94.7,0,0,82,3.736,3.748,3.749,3.744,0,0,0,32,483.06965817476,2.296588,6,P-GPS,
21100,2023-09-17 18:14:35,0,0,2.296588,,,483.06965817476,7.217848,2.2816788,0,0,9,2,14.977,483.39774217476,2.624672,5.816044,0,-0.447388,2.23694,0,99.3, -7.4, 0,0,0,1684,1024,1024,1024,100,0,0,0,94.7,0,0,82,3.736,3.748,3.749,3.744,0,0,0,32,483.06965817476,2.296588,6,P-GPS,
21200,2023-09-17 18:14:35,0,0,2.296588,,,483.06965817476,7.217848,2.5053728,0,0,9,2,14.977,483.39774217476,2.624672,5.816044,0,-0.447388,2.460634,0,99.4, -7.3, 0,0,0,1684,1024,1024,1024,100,0,0,0,94.7,0,0,82,3.736,3.748,3.749,3.744,0,0,0,32,483.06965817476,2.296588,6,P-GPS,
21300,2023-09-17 14:14:35,54.8406163381781,26.436110028898,2.296588,,,483.06965817476,7.217848,2.7290668,0,0,9,2,14.981,483.39774217476,2.624672,5.816044,0,-0.447388,2.684328,0,99.2, -7.2, -0.1,0,0,1684,1024,1024,1024,100,0,0,0,94.7,0,0,82,3.738,3.749,3.75,3.744,0,0,0,32,483.06965817476,2.296588,6,P-GPS,
21400,2023-09-17 14:14:35,54.8406162959911,26.436110712895,2.296588,,,483.06965817476,7.217848,2.9527608,0.144529532184,0.144529532184,9,2,14.981,483.39774217476,2.624672,5.816044,0.144529532184,-0.447388,2.908022,0,99.3, -7.1, 0,0,0,1684,1024,1024,1024,100,0,0,0,94.7,0,0,82,3.738,3.749,3.75,3.744,0,0,0,32,483.06965817476,2.296588,6,P-GPS,
21500,2023-09-17 14:14:36,54.840616155667,26.4361150420265,2.296588,,,483.06965817476,7.217848,3.1540854,1.05535764532,1.05551840648,9,2,14.981,483.39774217476,2.624672,5.816044,1.05535764532,-0.447388,3.131716,0,99.2, -6.9, 0.2,0,0,1684,1024,1024,1024,100,0,0,0,94.7,0,0,82,3.738,3.749,3.75,3.744,0,0,0,32,483.06965817476,2.296588,6,P-GPS,
21600,2023-09-17 14:14:36,54.8406160814579,26.4361164029869,2.296588,,,483.06965817476,7.217848,3.3777794,1.34246395372,1.3427329826,9,2,14.981,483.39774217476,2.624672,5.816044,1.34246395372,-0.447388,3.35541,0,99.2, -6.6, 0.2,0,0,1573,1024,1024,1024,83,0,0,0,94.7,0,0,82,3.738,3.749,3.75,3.744,0,0,0,32,483.06965817476,2.296588,6,P-GPS,
21700,2023-09-17 14:14:36,54.840615391994,26.4361202453216,2.296588,,,483.06965817476,6.889764,3.6014734,2.174048626,2.18829075244,9,2,14.981,483.39774217476,2.624672,5.816044,2.174048626,-0.447388,3.579104,0,99.2, -6.3, 0.5,0,0,1454,1024,1024,1024,65,0,0,0,94.7,0,0,82,3.738,3.749,3.75,3.744,0,0,0,32,483.06965817476,2.296588,6,P-GPS,
